City_ID,City,Lat,Lng,Max Temp,Humidity,Cloudiness,Wind Speed,Country,Date
0,saint-dizier,48.4167,5.0833,19.78,88,0,2.91,FR,1686109186
1,port-aux-francais,-49.35,70.2167,2.81,85,100,7.79,TF,1686193750
2,eldorado,-23.7869,-54.2836,18.16,77,0,1.83,BR,1686132880
3,saint-flour,45.0833,3.0,12.12,94,86,1.08,FR,1686110517
4,manokwari,-0.8667,134.0833,25.49,80,57,1.54,ID,1686171634
5,edinburgh of the seven seas,-37.0676,-12.3116,15.14,82,12,12.19,SH,1686124633
6,invercargill,-46.4,168.35,4.54,91,88,2.59,NZ,1686169469
7,balykshi,47.0667,51.8667,18.0,34,0,4.0,KZ,1686184691
8,waitangi,-43.9535,-176.5597,10.46,89,100,1.81,NZ,1686251756
9,puerto natales,-51.7236,-72.4875,3.25,75,75,5.66,CL,1686142228
10,longyearbyen,78.2186,15.6401,3.91,70,0,3.6,SJ,0
11,puerto ayora,-0.7393,-90.3518,29.98,88,91,3.13,EC,1686139081
12,chunskiy,56.0815,99.6342,15.34,79,14,0.76,RU,1686170246
13,loikaw,19.6742,97.2094,21.18,98,100,1.29,MM,1686178307
14,vila franca do campo,37.7167,-25.4333,19.23,80,53,8.15,PT,1686118814
15,bilibino,68.0546,166.4372,13.22,37,13,1.93,RU,0
16,yinchuan,38.4681,106.2731,21.41,24,2,1.92,CN,1686173463
17,albany,42.6001,-73.9662,17.58,57,100,3.62,US,1686129529
18,farafangana,-22.8167,47.8333,21.19,89,22,0.8,MG,1686108250
19,la'ie,21.6477,-157.9253,28.98,79,91,1.34,US,1686152905
20,xique xique,-10.8217,-42.7311,27.69,53,46,2.15,BR,1686128674
21,hirara,24.8,125.2833,25.92,94,20,4.12,JP,1686170946
22,atafu village,-8.5421,-172.5159,28.54,72,14,3.29,TK,1686246008
23,kingsville,27.5159,-97.8561,33.9,44,0,3.13,US,1686137746
24,al ghayzah,16.2079,52.176,28.13,82,98,2.79,YE,1686103108
25,bethel,41.3712,-73.414,20.2,51,100,4.12,US,1686129646
26,freetown,8.484,-13.2299,27.84,78,75,4.63,SL,1686119633
27,revda,56.801,59.9303,7.36,95,5,1.84,RU,1686179443
28,richards bay,-28.783,32.0377,20.86,56,0,4.41,ZA,1686112784
29,blackmans bay,-43.0167,147.3167,14.07,92,100,3.35,AU,1686173803
30,saldanha,-33.0117,17.9442,14.03,91,100,10.94,ZA,1686116750
31,grytviken,-54.2811,-36.5092,2.26,98,100,3.16,GS,1686134402
32,iqaluit,63.7506,-68.5145,1.85,93,100,2.06,CA,1686119026
33,cabo san lucas,22.8909,-109.9124,32.01,53,0,6.17,MX,1686141231
34,mirny,62.5353,113.9611,9.02,70,98,0.89,RU,1686162819
35,qarazhal,48.0078,70.7903,24.14,31,11,4.33,KZ,1686179906
36,kiama,-34.6833,150.8667,15.88,83,67,2.24,AU,1686171514
37,nyurba,63.2842,118.3319,10.18,62,100,0.82,RU,1686161043
38,port mathurin,-19.6833,63.4167,24.99,65,2,7.97,MU,1686190568
39,maun,-19.9833,23.4167,18.05,29,2,2.41,BW,1686113784
40,chibougamau,49.9168,-74.3659,13.79,54,100,6.17,CA,1686127826
41,iquique,-20.2208,-70.1431,20.02,73,0,2.17,CL,1686136271
42,ust-nera,64.5667,143.2,7.35,95,100,0.15,RU,1686153522
43,ilulissat,69.2167,-51.1,-0.99,80,75,3.6,GL,0
44,tocache,-8.1842,-76.5125,29.19,58,32,0.58,PE,1686136512
45,kuressaare,58.2481,22.5039,12.23,70,2,1.54,EE,1686101349
46,ad dabbah,18.05,30.95,33.61,34,96,3.12,SD,1686107996
47,isafjordur,66.0755,-23.124,7.92,82,100,7.49,IS,1686104030
48,eyl,7.9803,49.8164,26.91,80,100,10.13,SO,1686104553
49,lihue,21.9789,-159.3672,26.77,73,20,4.12,US,1686153212
50,ampanihy,-24.7,44.75,18.13,98,7,2.17,MG,1686109216
51,hermanus,-34.4187,19.2345,13.78,83,95,4.65,ZA,1686116647
52,lebu,-37.6167,-73.65,13.48,68,100,5.56,CL,1686139449
53,oranjemund,-28.55,16.4333,15.38,78,33,8.25,NA,1686116499
54,stephenville,32.2207,-98.2023,32.18,42,100,1.54,US,1686137164
55,ushuaia,-54.8,-68.3,4.79,81,40,6.69,AR,1686142218
56,laguna,38.421,-121.4238,25.17,57,0,5.14,US,1686141724
57,al kharijah,25.4514,30.5464,34.16,13,0,1.63,EG,1686107201
58,kingston,17.997,-76.7936,31.53,72,75,9.26,JM,1686133860
59,kharp,66.8014,65.8081,5.11,71,26,2.61,RU,0
60,mandeure,47.4492,6.8076,17.57,77,37,1.43,FR,1686109027
61,yellowknife,62.456,-114.3525,10.29,81,100,4.63,CA,1686131317
62,lompoc,34.6391,-120.4579,19.18,79,100,4.63,US,1686142131
63,victorica,-36.2151,-65.4359,17.98,41,79,4.98,AR,1686137252
64,kayangel,8.0823,134.7173,28.13,80,100,6.44,PW,1686170571
65,myeik,12.4333,98.6,25.84,91,100,4.09,MM,1686178781
66,ambon,-3.6954,128.1814,27.71,80,40,3.09,ID,1686173336
67,margaret river,-33.95,115.0667,15.64,74,100,6.88,AU,1686179999
68,talnakh,69.4865,88.3972,9.56,97,92,3.11,RU,0
69,west island,-12.1568,96.8225,25.99,83,75,8.75,CC,1686181731
70,scottburgh,-30.2867,30.7532,21.54,37,0,3.91,ZA,1686113293
71,hadibu,12.65,54.0333,29.09,77,100,5.08,YE,1686103050
72,keflavik,64.0049,-22.5624,8.95,93,100,9.77,IS,1686107713
73,serpong,-6.3169,106.6642,26.82,85,100,1.33,ID,1686178766
74,qaqortoq,60.7167,-46.0333,3.85,80,19,1.31,GL,1686116297
75,isfana,39.8386,69.5306,16.31,27,11,2.84,KG,1686182028
76,omdurman,15.6445,32.4777,31.08,40,99,5.11,SD,1686107898
77,newman,37.3138,-121.0208,24.38,58,94,2.24,US,1686141822
78,port lincoln,-34.7333,135.8667,14.34,68,21,8.61,AU,1686175123
79,ixtapa,20.7,-105.2,30.13,66,20,7.2,MX,1686140364
80,crockett,31.3182,-95.4566,31.99,45,20,0.0,US,1686136639
81,kerikeri,-35.2268,173.9474,12.17,83,54,1.79,NZ,1686166056
82,bredasdorp,-34.5322,20.0403,12.41,83,100,2.44,ZA,1686116471
83,tadine,-21.55,167.8833,21.58,62,13,5.11,NC,1686165705
84,stanley,54.868,-1.6985,10.39,78,75,2.57,GB,1686108705
85,st. john's,47.5649,-52.7093,12.38,95,100,0.0,CA,1686123277
86,prineville,44.2999,-120.8345,29.51,25,0,3.09,US,1686140408
87,amahai,-3.3333,128.9167,25.29,87,100,1.31,ID,1686173123
88,saipan,15.1355,145.701,27.58,100,40,5.14,MP,1686167183
89,adamstown,-25.066,-130.1015,21.84,70,5,5.82,PN,1686151237
90,tazacorte,28.629,-17.9293,22.54,95,20,2.68,ES,1686118414
91,quellon,-43.1167,-73.6167,9.14,93,100,10.8,CL,1686140432
92,guaranesia,-21.2992,-46.8025,16.13,72,0,1.71,BR,1686130792
93,aasiaat,68.7098,-52.8699,-0.47,78,100,4.96,GL,0
94,udachny,66.4167,112.4,8.03,70,97,2.24,RU,0
95,guinticgan,11.5641,123.1236,26.92,82,100,2.18,PH,1686172988
96,stung treng,13.5259,105.9683,23.98,98,100,0.76,KH,1686176895
97,mora,11.0461,14.1401,27.65,57,92,1.95,CM,1686112796
98,moussoro,13.6408,16.4901,33.22,39,66,3.3,TD,1686111954
99,nemuro,43.3236,145.575,11.07,97,16,4.39,JP,1686163079
100,berkane,34.9084,-2.3461,20.82,84,100,3.28,MA,1686113744
101,punta arenas,-53.15,-70.9167,3.06,75,20,6.17,CL,1686142289
102,mata-utu,-13.2816,-176.1745,27.79,74,93,3.24,WF,1686247381
103,kijang,35.2442,129.2139,18.85,82,100,3.52,KR,1686168510
104,mil'kovo,55.6078,37.7956,15.73,84,49,2.03,RU,1686098927
105,papatowai,-46.5619,169.4708,4.7,91,58,1.82,NZ,1686169236
106,cavan,53.9908,-7.3606,8.76,89,69,2.2,IE,1686110403
107,mangrol,21.1167,70.1167,28.37,80,26,4.67,IN,1686184639
108,georgetown,5.4112,100.3354,28.96,85,20,2.06,MY,1686179098
109,pervomayskoye,43.919,46.7102,13.54,85,0,2.51,RU,1686100291
110,hawaiian paradise park,19.5933,-154.9731,26.69,79,75,2.57,US,1686152440
111,vizinga,61.0749,50.1031,4.92,74,86,2.18,RU,1686092990
112,mejit,10.2753,170.8646,27.68,83,79,7.48,MH,1686161666
113,murun-kuren,49.6342,100.1625,14.81,56,36,0.97,MN,1686172407
114,san patricio,28.017,-97.5169,33.42,45,51,1.88,US,1686137597
115,prince rupert,54.3161,-130.3201,18.05,65,0,4.63,CA,1686139776
116,al jawf,29.5,38.75,28.24,17,0,2.98,SA,1686104691
117,saynshand,44.8824,110.1163,15.43,23,52,4.34,MN,1686171241
118,hithadhoo,-0.6,73.0833,28.19,68,26,1.16,MV,1686186249
119,buala,-8.145,159.5921,27.19,82,100,1.24,SB,1686166248
120,vilyuysk,63.7553,121.6247,9.38,58,100,1.49,RU,1686159736
121,zhengjiatun,43.5064,123.5064,14.25,50,0,3.13,CN,1686168335
122,bafoulabe,13.8065,-10.8321,37.88,17,100,1.88,ML,1686118494
123,wailua homesteads,22.0669,-159.378,26.44,78,20,4.12,US,1686153203
124,luderitz,-26.6481,15.1594,13.81,81,0,4.1,NA,1686116561
125,fort mcmurray,56.7268,-111.381,26.77,21,0,8.75,CA,1686134216
126,vernon,50.2581,-119.2691,33.39,16,2,1.54,CA,1686138498
127,pisco,-13.7,-76.2167,22.03,73,100,3.09,PE,1686137014
128,kichmengskiy gorodok,59.9816,45.7854,7.16,97,100,1.82,RU,1686094764
129,jackson,42.4165,-122.8345,28.19,55,0,1.54,US,1686141293
130,marka,1.7159,44.7717,25.72,90,100,5.58,SO,1686106401
131,orange,33.7,-117.7675,23.16,63,75,5.14,US,1686141634
132,thompson,55.7435,-97.8558,28.09,57,75,2.06,CA,1686131409
133,sao felix do xingu,-6.6447,-51.995,26.8,67,21,1.11,BR,1686130470
134,ola,59.5833,151.2833,11.75,70,23,1.57,RU,1686156049
135,warrnambool,-38.3833,142.4833,10.59,89,12,6.68,AU,1686174118
136,khalkhal,37.6189,48.5258,11.67,92,100,2.29,IR,1686187472
137,kodiak,57.79,-152.4072,8.73,93,100,4.12,US,1686143541
138,anadyr,64.75,177.4833,6.28,86,100,1.0,RU,1686145036
139,sabang,5.8933,95.3214,28.23,75,97,7.75,ID,1686180252
140,weno,7.4515,151.8468,25.97,100,75,1.54,FM,1686166525
141,port elizabeth,-33.918,25.5701,14.62,87,0,4.12,ZA,1686115051
142,labrador city,52.9463,-66.9114,4.95,93,100,7.72,CA,1686125068
143,caleta de carquin,-11.0925,-77.6267,23.61,77,16,4.85,PE,1686137079
144,bamboo flat,11.7,92.7167,27.67,83,100,8.77,IN,1686180272
145,olonkinbyen,70.9221,-8.7187,1.83,80,96,4.36,SJ,0
146,yenangyaung,20.4667,94.8833,27.42,73,100,4.43,MM,1686178772
147,happy valley-goose bay,53.3168,-60.3315,6.17,93,100,9.77,CA,1686123358
148,kapa'a,22.0752,-159.319,27.18,78,20,4.12,US,1686153188
149,cooma,-36.2333,149.1333,11.24,92,100,4.63,AU,1686172171
150,tazovsky,67.4667,78.7,6.07,74,42,3.98,RU,0
151,dunda,-8.1167,34.25,15.47,66,4,1.55,TZ,1686109918
152,tiksi,71.6872,128.8694,2.78,84,94,1.41,RU,0
153,nobeoka,32.5833,131.6667,20.24,89,100,2.38,JP,1686168338
154,tarko-sale,64.9225,77.785,13.17,68,96,6.64,RU,1686168650
155,iskateley,67.6803,53.1512,2.59,72,100,3.71,RU,0
156,ribeira grande,38.5167,-28.7,19.22,68,40,4.47,PT,1686119456
157,constitucion,-35.3333,-72.4167,15.23,74,99,1.18,CL,1686138790
158,babu,24.4167,111.5167,23.96,95,100,1.09,CN,1686174298
159,novodvinsk,64.4165,40.8122,1.86,79,4,1.32,RU,1686091999
160,morondava,-20.2833,44.2833,22.84,77,0,3.34,MG,1686108809
161,karratha,-20.7377,116.8463,17.57,55,5,4.43,AU,1686177863
162,mogoytuy,51.2833,114.9167,7.3,64,5,3.87,RU,1686168368
163,guerrero negro,27.9769,-114.0611,20.26,53,24,8.03,MX,1686141573
164,ad darb,17.7229,42.2526,34.29,46,95,3.18,SA,1686105320
165,rio grande,-32.035,-52.0986,24.06,87,98,2.27,BR,1686133426
166,maydanshakhr,34.3956,68.8662,16.75,28,0,2.24,AF,1686183128
167,dawson creek,55.7666,-120.2362,22.8,25,0,6.69,CA,1686136768
168,mersing,2.4312,103.8405,25.95,94,20,2.57,MY,1686178560
169,mili,6.0815,171.735,28.48,79,32,6.82,MH,1686161892
170,fort bragg,35.139,-79.006,25.08,54,75,4.63,US,1686132104
171,tateyama,34.9833,139.8667,20.89,84,100,2.03,JP,1686165996
172,krasnogorskoye,52.2953,86.1979,18.09,70,100,1.7,RU,1686174927
173,gadzhiyevo,69.2551,33.3362,5.07,73,100,0.67,RU,0
174,cidade velha,14.9167,-23.6167,26.26,73,0,5.14,CV,1686121442
175,constantia,44.1833,28.65,15.38,73,100,3.74,RO,1686104566
176,kamaishi,39.2667,141.8833,17.39,81,34,1.66,JP,1686164773
177,howrah,22.5892,88.3103,32.0,79,40,4.12,IN,1686180095
178,impfondo,1.6381,18.0667,22.48,95,81,0.63,CG,1686112818
179,teknaf,20.8624,92.3058,26.09,87,100,1.23,BD,1686179344
180,petropavlovsk-kamchatsky,53.0452,158.6483,8.21,76,20,2.0,RU,1686157286
181,kolonia,50.9333,6.95,19.9,82,0,2.06,DE,1686108011
182,olyokminsk,60.3736,120.4264,11.11,57,98,0.8,RU,1686162945
183,bathsheba,13.2167,-59.5167,30.34,74,20,5.66,BB,1686130243
184,veraval,20.9,70.3667,28.51,79,60,4.33,IN,1686184605
185,college,64.8569,-147.8028,22.55,44,40,1.54,US,1686136553
186,ghat,24.9647,10.1728,31.7,17,10,3.42,LY,1686112153
187,kisangani,0.5167,25.2,21.82,98,77,0.13,CD,1686111219
188,luganville,-15.5333,167.1667,24.82,79,80,4.49,VU,1686165204
189,tinogasta,-28.0632,-67.5649,21.96,41,3,1.94,AR,1686136602
190,haiku-pauwela,20.9219,-156.3051,30.01,40,20,7.2,US,1686152603
191,ljusdal,61.8288,16.0913,12.48,59,98,2.19,SE,1686100571
192,kushiro,42.975,144.3747,12.87,95,95,0.39,JP,1686163442
193,petoskey,45.3733,-84.9553,21.69,41,75,4.63,US,1686131554
194,san andres,12.5847,-81.7006,32.01,70,20,2.57,CO,1686135635
195,lamu,-2.2717,40.902,27.12,82,19,8.24,KE,1686107730
196,rach gia,10.0167,105.0833,27.5,82,100,4.16,VN,1686177482
197,olinda,-8.0089,-34.8553,25.85,83,75,4.63,BR,1686126495
198,praia da vitoria,38.7333,-27.0667,19.14,77,40,8.79,PT,1686119025
199,ushtobe,45.2514,77.9838,21.78,40,27,4.26,KZ,1686178866
200,sirte,31.2089,16.5887,20.98,80,97,4.48,LY,1686109766
201,manismata,-2.4667,111.0333,23.65,98,100,1.52,ID,1686177328
202,basco,20.4487,121.9702,26.88,77,24,5.49,PH,1686172273
203,pratola peligna,42.0983,13.8739,19.07,88,3,1.45,IT,1686108555
204,margate,51.3813,1.3862,12.17,83,1,4.92,GB,1686109205
205,ancud,-41.8697,-73.8203,11.06,89,100,9.51,CL,1686140239
206,sitka,57.0531,-135.33,14.94,58,75,2.06,US,1686139807
207,labasa,-16.4167,179.3833,21.76,95,100,2.23,FJ,1686162367
208,heroica caborca,30.7167,-112.15,33.14,12,46,7.45,MX,1686140732
209,zhaoyuan,37.3592,120.3964,21.22,70,69,0.48,CN,1686170270
210,nizhnesortymskiy,62.4397,71.7603,13.07,82,100,7.11,RU,1686173024
211,uturoa,-16.7333,-151.4333,27.17,59,48,8.08,PF,1686155396
212,san juan de los morros,9.9115,-67.3538,26.58,80,84,1.96,VE,1686132475
213,jaisalmer,26.9147,70.9181,32.61,44,0,7.49,IN,1686183718
214,susuman,62.7833,148.1667,12.42,65,98,1.31,RU,1686154388
215,pembroke,45.8168,-77.1162,15.99,71,100,2.83,CA,1686129568
216,paracuru,-3.41,-39.0306,28.39,80,0,4.86,BR,1686127031
217,cochrane,51.1834,-114.4687,28.28,27,0,1.54,CA,1686137063
218,barra de santo antonio,-9.4047,-35.5072,24.6,87,9,3.45,BR,1686126794
219,mokhsogollokh,61.4681,128.9203,12.7,68,48,1.16,RU,1686160124
220,bandarbeyla,9.4942,50.8122,26.77,84,100,10.95,SO,1686104156
221,maposeni,-10.5833,35.4,19.2,54,92,0.98,TZ,1686109895
222,kapuskasing,49.4169,-82.4331,21.0,26,40,6.69,CA,1686129906
223,healesville,-37.65,145.5167,14.44,99,98,1.43,AU,1686173268
224,patterson,37.4716,-121.1297,24.82,58,94,1.01,US,1686141821
225,utrik,11.2278,169.8474,27.66,83,78,7.25,MH,1686161809
226,puerto baquerizo moreno,-0.9,-89.6,26.55,83,75,3.09,EC,1686138917
227,yazykovo,55.2199,56.1353,9.86,84,16,1.51,RU,1686181049
228,vilyuchinsk,52.9306,158.4028,9.03,74,21,1.41,RU,1686157385
229,ta`u,-14.2336,-169.5144,26.85,81,96,7.78,AS,1686159467
230,smithers,54.7804,-127.1743,21.18,24,0,1.03,CA,1686138840
231,hilo,19.7297,-155.09,29.04,80,75,4.92,US,1686152452
232,tolanaro,-25.0319,46.9987,23.04,88,20,8.23,MG,1686108717
233,angra dos reis,-23.0067,-44.3181,19.89,84,0,1.02,BR,1686130395
234,hat yai,7.0084,100.4767,26.1,89,75,0.0,TH,1686178900
235,missoula,47.0166,-113.8009,25.65,35,49,0.33,US,1686138075
236,tvoroyri,61.5556,-6.8111,9.51,84,100,1.43,FO,1686106278
237,kudahuvadhoo,2.6708,72.8944,27.98,78,100,4.47,MV,1686185964
238,balotra,25.8333,72.2333,32.85,47,0,5.29,IN,1686183545
239,badger,64.8,-147.5333,22.51,46,75,1.54,US,1686136577
240,klyuchi,52.2667,79.1667,22.39,41,100,3.27,RU,1686176623
241,ulladulla,-35.35,150.4667,13.37,86,88,4.05,AU,1686171712
242,prado,-17.3411,-39.2208,22.02,78,5,2.7,BR,1686128526
243,choibalsan,48.0667,114.5,8.81,60,57,4.96,MN,1686169402
244,sandnessjoen,66.0217,12.6316,7.06,81,75,3.6,NO,1686095657
245,uray,60.1247,64.7758,10.95,86,100,2.16,RU,1686176456
246,mammoth lakes,37.6485,-118.9721,12.97,42,100,6.17,US,1686141272
247,mercedes,-34.6515,-59.4307,19.36,84,69,3.27,AR,1686135568
248,dunedin,-45.8742,170.5036,4.89,90,1,0.89,NZ,1686168833
249,bardai,11.65,7.2333,24.04,65,100,2.85,NG,1686114389
250,luoyang,34.6836,112.4536,23.07,54,3,1.98,CN,1686172622
251,ouargaye,11.5033,0.0572,30.36,51,52,6.59,BF,1686116127
252,aginskoye,51.1,114.53,6.88,64,13,3.47,RU,1686168519
253,alpatovo,43.7028,45.2415,13.27,89,2,2.17,RU,1686100690
254,lerwick,60.1545,-1.1494,11.0,84,100,3.78,GB,1686105910
255,tofol,5.3248,163.0078,28.88,76,88,5.0,FM,1686164064
256,fale old settlement,-9.3852,-171.2468,28.57,69,38,3.17,TK,1686245790
257,carnarvon,-24.8667,113.6333,16.6,59,0,6.43,AU,1686179123
258,crane,31.3974,-102.3501,31.23,29,45,1.72,US,1686138281
259,labytnangi,66.6572,66.4183,5.84,67,7,1.99,RU,0
260,novobelokatay,55.7062,58.9549,8.36,90,7,1.4,RU,1686180168
261,nizhneudinsk,54.9076,99.0276,15.37,73,3,1.35,RU,1686170886
262,urengoy,65.9667,78.3667,11.22,74,99,4.82,RU,1686166210
263,neiafu,-18.65,-173.9833,21.38,94,100,2.06,TO,1686247441
264,nyagan,62.1406,65.3936,11.53,63,100,3.42,RU,1686174812
265,lyantor,61.6195,72.1555,14.59,86,100,3.59,RU,1686173618
266,thunder bay,48.4001,-89.3168,19.99,30,40,4.63,CA,1686131839
267,las tablas,7.7667,-80.2833,28.43,99,100,1.23,PA,1686135801
268,port isabel,26.0734,-97.2086,33.04,70,0,5.66,US,1686137781
269,qom,34.6401,50.8764,24.48,44,100,2.2,IR,1686187406
270,remire-montjoly,4.9167,-52.2667,27.02,78,0,3.09,GF,1686129368
271,san clemente del tuyu,-36.3569,-56.7235,13.32,80,41,2.97,AR,1686135182
272,port alfred,-33.5906,26.891,14.54,92,2,1.34,ZA,1686114686
273,jamestown,42.097,-79.2353,20.29,33,75,4.63,US,1686130897
274,altud,43.7219,43.8658,15.25,90,1,1.61,RU,1686101016
275,deshnoke,27.8,73.35,32.35,36,54,1.51,IN,1686183016
276,stassfurt,51.8396,11.58,18.09,78,100,0.99,DE,1686106612
277,coquimbo,-29.9533,-71.3436,15.85,88,40,4.12,CL,1686137759
278,kristiansund,63.1115,7.732,10.03,93,75,2.06,NO,1686101430
279,mount gambier,-37.8333,140.7667,9.86,96,98,4.05,AU,1686174438
280,jiayuguan,39.8167,98.3,19.43,15,50,1.24,CN,1686175128
281,sanming,26.2486,117.6186,24.55,97,99,1.45,CN,1686172598
282,mossel bay,-34.1831,22.146,10.96,77,81,4.25,ZA,1686115913
283,chonchi,-42.6128,-73.8092,8.4,94,100,4.71,CL,1686140379
284,san julian,21.0167,-102.1667,31.44,13,4,5.05,MX,1686139599
285,villa del prado,40.2692,-4.3046,18.23,91,100,1.61,ES,1686113278
286,general mosconi,-23.1851,-62.303,26.86,54,100,2.52,AR,1686134734
287,kavaratti,10.5669,72.642,29.72,76,86,6.61,IN,1686185210
288,fisterra,42.9049,-9.2629,20.01,91,84,5.61,ES,1686113939
289,sault ste. marie,46.5168,-84.3333,18.31,41,0,7.72,CA,1686131130
290,tsiombe,-25.3,45.4833,20.25,95,12,3.01,MG,1686109113
291,ephraim,39.3597,-111.5863,24.59,30,91,3.19,US,1686139192
292,songling,31.1933,120.7176,23.11,88,100,2.21,CN,1686171172
293,ndele,8.4109,20.6473,23.02,80,96,1.19,CF,1686111509
294,codrington,-38.2667,141.9667,9.78,92,7,6.2,AU,1686174223
295,recreo,-29.2818,-65.061,21.89,71,57,4.2,AR,1686136160
296,vorgashor,67.5833,63.95,2.62,76,89,3.93,RU,0
297,nagasaki,32.7447,129.8736,21.58,88,100,2.18,JP,1686168744
298,edna,28.9786,-96.6461,33.39,53,99,0.62,US,1686137256
299,avarua,-21.2078,-159.775,24.03,83,75,1.54,CK,1686157901
300,freeport,40.6576,-73.5832,20.59,41,100,5.66,US,1686129827
301,mugia,43.1041,-9.2179,20.09,91,95,3.5,ES,1686113886
302,ovalle,-30.5983,-71.2003,21.9,48,82,1.76,CL,1686137812
303,yerofey pavlovich,53.9667,121.9667,9.43,94,100,2.12,RU,1686165750
304,mahina,-17.5065,-149.489,27.87,61,40,2.57,PF,1686155014
305,new norfolk,-42.7826,147.0587,14.72,89,100,0.89,AU,1686173819
306,souillac,-20.5167,57.5167,24.21,69,40,4.63,MU,1686192080
307,mount isa,-20.7333,139.5,12.87,88,21,0.0,AU,1686172424
308,berezovyy,51.6667,135.7,13.04,90,76,0.75,RU,1686163259
309,the pas,53.8251,-101.2541,28.01,54,0,2.57,CA,1686132989
310,oban,56.4127,-5.4706,15.77,87,87,0.47,GB,1686108954
311,pangody,65.85,74.4859,10.19,76,98,4.78,RU,1686167494
312,villa dolores,-31.9459,-65.1896,20.42,63,95,1.73,AR,1686136556
313,isla vista,34.4133,-119.861,19.35,74,100,2.57,US,1686142024
314,salinopolis,-0.6136,-47.3561,26.78,84,55,4.83,BR,1686128748
315,hamilton,39.1834,-84.5333,25.84,35,20,6.17,US,1686132733
316,la ronge,55.1001,-105.2842,26.12,29,40,3.09,CA,1686133460
317,la palma,33.8464,-118.0467,22.67,64,75,4.12,US,1686141678
318,alofi,-19.0595,-169.9187,23.94,83,100,2.57,NU,1686160091
319,vadso,70.0744,29.7487,6.49,87,0,2.57,NO,0
320,mocimboa,-11.3167,40.35,23.18,88,2,3.26,MZ,1686108783
321,puerto lempira,15.2667,-83.7667,29.08,70,75,2.06,HN,1686135840
322,heunghae,36.1125,129.3522,19.71,71,100,2.28,KR,1686168333
323,galveston,29.3669,-94.9669,34.47,60,40,4.63,US,1686136800
324,arvayheer,46.2639,102.775,13.07,54,2,3.43,MN,1686172675
325,sittwe,20.15,92.9,26.7,87,100,3.34,MM,1686179285
326,leninskoye,41.7589,69.3864,24.61,15,1,2.79,KZ,1686181687
327,naze,28.3667,129.4833,23.51,92,100,6.19,JP,1686169468
328,orchard homes,46.8633,-114.0484,30.51,37,0,2.57,US,1686138173
329,bontang,0.1333,117.5,24.74,91,98,2.47,ID,1686175513
330,lamar,33.6668,-95.5836,32.02,43,20,0.0,US,1686136315
331,contamana,-7.3333,-75.0167,29.78,59,79,1.46,PE,1686136066
332,villa juarez,24.6536,-107.5411,30.14,58,40,3.6,MX,1686140443
333,moroni,-11.7022,43.2551,25.59,78,1,0.97,KM,1686108126
334,bridgewater,44.3835,-64.5155,13.95,89,98,6.17,CA,1686126876
335,matamey,13.4231,8.4749,28.1,49,100,8.77,NE,1686113902
336,cativa,9.3606,-79.8436,24.94,85,100,1.79,PA,1686135530
337,faya-largeau,17.9257,19.1043,32.63,36,100,4.95,TD,1686110853
338,nar'yan-mar,67.6713,53.087,2.58,72,100,3.71,RU,0
339,xining,36.6167,101.7667,11.62,54,100,1.06,CN,1686174868
340,walvis bay,-22.9575,14.5053,13.38,93,0,0.51,NA,1686116268
341,zyryanovsk,49.7386,84.2719,19.87,66,100,1.46,KZ,1686176190
342,sinabang,2.4803,96.3801,26.37,79,100,1.56,ID,1686180346
343,banda aceh,5.5577,95.3222,26.39,77,97,5.15,ID,1686180286
344,ciudad miguel aleman,26.35,-99.1,35.37,36,16,3.5,MX,1686138199
345,sao joao da barra,-21.6403,-41.0511,25.05,75,1,4.71,BR,1686129450
346,piestany,48.5948,17.8259,17.39,96,20,1.54,SK,1686106080
347,lakehills,29.6047,-98.9431,29.07,69,99,1.16,US,1686137721
348,chom bueng,13.62,99.5917,25.94,78,100,3.37,TH,1686178415
349,nantucket,41.2835,-70.0995,19.08,75,100,5.66,US,1686128869
350,trinidad,-14.8333,-64.9,31.99,62,20,2.06,BO,1686134418
351,myitkyina,25.3833,97.4,24.54,98,96,0.71,MM,1686177563
352,dryden,49.7833,-92.7503,20.16,40,100,2.06,CA,1686132276
353,horta,38.5333,-28.6333,18.8,77,40,4.47,PT,1686119437
354,chinde,26.8418,88.0763,21.84,48,53,2.16,NP,1686179610
355,puerto aysen,-45.4,-72.7,7.02,93,100,3.6,CL,1686140685
356,lazaro cardenas,17.9583,-102.2,30.54,57,34,4.58,MX,1686139962
357,tamanrasset,22.785,5.5228,31.95,11,20,3.09,DZ,1686113540
358,borba,-4.3878,-59.5939,26.98,84,100,0.74,BR,1686132066
359,rengo,-34.4167,-70.8667,21.18,58,98,0.35,CL,1686138279
360,dudinka,69.4058,86.1778,9.79,91,79,4.0,RU,0
361,lagos,6.5833,3.75,27.18,93,100,2.23,NG,1686115753
362,codajas,-3.8367,-62.0569,28.76,76,43,1.4,BR,1686132601
363,manadhoo,5.7667,73.3833,28.81,80,94,6.97,MV,1686185531
364,patnos,39.2336,42.8634,13.16,61,0,2.19,TR,1686102153
365,novoagansk,61.9449,76.6625,14.37,95,100,1.25,RU,1686172274
366,montepuez,-13.1256,38.9997,18.78,83,57,1.96,MZ,1686109296
367,puerto deseado,-47.7503,-65.8938,8.47,51,100,4.3,AR,1686139588
368,urlati,44.9833,26.2333,19.77,69,86,2.02,RO,1686104965
369,melfi,40.9965,15.6514,17.31,90,34,1.21,IT,1686108349
370,choyr,46.3611,108.3611,12.08,37,29,4.2,MN,1686171311
371,vaslui,46.6333,27.7333,15.15,55,100,2.81,RO,1686104212
372,lindi,-10.0,39.7167,21.42,97,9,1.75,TZ,1686108798
373,rutana,-3.8667,30.1,14.52,70,0,1.78,BI,1686110483
374,east london,-33.0153,27.9116,15.52,77,0,5.14,ZA,1686114357
375,whitehorse,60.7161,-135.0538,17.23,48,40,4.12,CA,1686137646
376,port-gentil,-0.7193,8.7815,23.98,94,20,4.63,GA,1686115284
377,willow street,39.9793,-76.2764,25.09,33,100,4.12,US,1686130603
378,sinop,41.7711,34.8709,14.3,85,0,2.3,TR,1686103583
379,pointe-noire,-4.7761,11.8635,23.65,82,37,2.86,CG,1686114952
380,termoli,41.9888,14.9895,19.21,78,98,1.89,IT,1686108309
381,princeton,25.5384,-80.4089,30.01,74,75,3.09,US,1686133818
382,mount pearl,47.5166,-52.7813,11.92,95,100,0.0,CA,1686123307
383,nema,57.5067,50.5011,10.13,69,72,3.62,RU,1686095013
384,tocopilla,-22.092,-70.1979,19.21,71,15,2.46,CL,1686136500
385,nova vicosa,-17.8919,-39.3719,22.49,75,26,3.05,BR,1686128623
386,burley,42.5357,-113.7928,21.98,53,75,2.57,US,1686139099
387,adamovka,51.5223,59.9396,13.54,67,97,3.04,RU,1686181482
388,kampene,-3.6,26.6667,21.67,75,6,1.0,CD,1686111281
389,alice springs,-23.7,133.8833,8.75,100,0,3.6,AU,1686174121
390,hasaki,35.7333,140.8333,19.56,71,98,2.56,JP,1686165641
391,geraldton,-28.7667,114.6,10.23,93,83,4.63,AU,1686179387
392,san jose del cabo,23.0589,-109.6977,32.0,48,0,6.17,MX,1686141159
393,catalca,41.1432,28.4615,18.86,92,27,6.96,TR,1686105246
394,fort st. john,56.2499,-120.8529,20.94,28,40,2.57,CA,1686136705
395,lepsy,46.235,78.9456,24.48,30,31,4.48,KZ,1686178400
396,qamdo,31.1667,97.2333,3.18,59,0,0.47,CN,1686176812
397,aydarken,39.9443,71.3429,16.06,36,1,3.3,KG,1686181573
398,zheleznodorozhnyy,55.7503,38.0042,15.75,79,57,1.01,RU,1686098816
399,roma,43.2128,-75.4557,18.79,51,100,6.69,US,1686129757
400,phalaborwa,-23.943,31.1411,18.6,55,0,2.22,ZA,1686112392
401,kamuthi,9.4073,78.3734,29.78,63,100,2.95,IN,1686183956
402,vega de alatorre,20.0333,-96.6333,30.66,67,13,6.38,MX,1686138387
403,dar kulayb,26.0686,50.5039,33.97,49,0,2.22,BH,1686102332
404,shimoda,34.6667,138.95,20.06,84,100,0.16,JP,1686166266
405,lata,40.1629,-8.3327,20.51,92,51,1.04,PT,1686114265
406,namibe,-15.1961,12.1522,18.31,77,5,3.38,AO,1686115961
407,brookings,44.3114,-96.7984,32.19,42,0,2.57,US,1686134638
408,lewistown,40.5992,-77.5714,25.1,59,0,5.66,US,1686130795
409,cambria,35.5641,-121.0808,19.75,76,52,1.34,US,1686142131
410,lodja,-3.4833,23.4333,23.07,74,60,0.74,CD,1686112045
411,rayong,12.8333,101.4333,27.38,90,100,2.93,TH,1686178058
412,sao vicente,-23.9631,-46.3919,28.1,49,0,1.22,BR,1686131007
413,touros,-5.1989,-35.4608,26.14,82,7,5.58,BR,1686126355
414,al qaryatayn,34.2296,37.2407,22.85,39,0,2.1,SY,1686104353
415,ar ruways,24.1103,52.7306,30.24,55,0,0.79,AE,1686188445
416,sao lourenco da serra,-23.8525,-46.9425,23.5,85,0,0.97,BR,1686131126
417,zalingei,12.9096,23.4741,24.42,68,91,1.15,SD,1686110357
418,koutiala,12.3917,-5.4642,34.6,27,100,2.83,ML,1686117358
419,shimokizukuri,40.8061,140.3861,17.75,97,4,1.17,JP,1686164840
420,makrana,27.05,74.7167,31.31,36,9,2.29,IN,1686182789
421,port moresby,-9.4431,147.1797,25.68,89,75,5.14,PG,1686169361
422,kimbe,-5.5502,150.1429,24.74,91,62,1.61,PG,1686168252
423,arraial do cabo,-22.9661,-42.0278,21.92,73,0,4.63,BR,1686129840
424,kidal,18.4411,1.4078,35.06,12,3,3.3,ML,1686115041
425,balao,-2.9167,-79.8167,26.65,81,76,1.2,EC,1686136771
426,kone,-21.0595,164.8658,19.82,64,1,1.04,NC,1686166372
427,brigantine,39.4101,-74.3646,24.52,34,0,5.14,US,1686130251
428,belyy yar,53.6039,91.3903,16.94,63,0,0.0,RU,1686173220
429,queenstown,-31.8976,26.8753,12.3,22,54,5.12,ZA,1686114447
430,pariaman,-0.619,100.12,25.8,81,100,1.14,ID,1686179761
431,boda,4.3189,17.4695,22.08,91,88,1.72,CF,1686112691
432,caxias,38.7031,-9.2767,22.28,82,75,5.66,PT,1686114762
433,corner brook,48.9667,-57.9484,11.09,94,100,2.31,CA,1686124158
434,colwyn bay,53.2948,-3.7267,16.23,68,1,2.81,GB,1686109786
435,shangrao,28.4532,117.9686,23.12,98,99,1.49,CN,1686172219
436,boguchany,58.3814,97.4531,16.85,90,62,0.65,RU,1686169649
437,port shepstone,-30.7414,30.455,22.52,41,0,3.96,ZA,1686113426
438,sodankyla,67.4167,26.6,6.53,93,100,1.37,FI,0
439,ceeldheer,3.8488,47.1806,26.28,81,96,7.66,SO,1686105607
440,sangola,17.4333,75.2,28.98,51,8,7.53,IN,1686183847
441,zaozersk,69.4005,32.4476,3.97,80,71,1.07,RU,0
442,salalah,17.0151,54.0924,30.05,79,20,2.06,OM,1686188960
443,blythe,33.6103,-114.5964,33.91,14,1,6.07,US,1686140887
444,gamba,-2.65,10.0,22.92,88,100,2.13,GA,1686115186
445,sisimiut,66.9395,-53.6735,0.39,68,100,2.71,GL,0
446,linxia chengguanzhen,35.6003,103.2064,12.85,47,100,1.84,CN,1686174693
447,lianhe,47.1333,129.2667,13.14,98,100,0.76,CN,1686166102
448,tonkino,57.3726,46.4629,11.21,94,99,5.76,RU,1686096047
449,plastun,44.7561,136.2939,12.1,98,100,0.55,RU,1686164989
450,swift current,50.2834,-107.8014,25.45,61,40,3.6,CA,1686135739
451,harnosand,62.6323,17.9379,12.01,65,88,1.99,SE,1686099441
452,ostersund,63.1792,14.6357,9.23,36,0,5.66,SE,1686099708
453,ashland,40.8167,-82.2665,21.7,31,0,5.27,US,1686131880
454,daru,-9.0763,143.2092,25.66,89,100,7.71,PG,1686170276
455,plav,42.5969,19.9456,12.88,90,100,0.8,ME,1686106995
456,guaimaca,14.5333,-86.8167,24.56,70,100,0.14,HN,1686136652
457,az zawiyah,32.0963,35.0398,23.39,84,0,3.6,PS,1686105207
458,kasongo,-4.45,26.6667,23.58,54,24,1.22,CD,1686111366
459,charters towers,-20.1,146.2667,14.53,92,70,2.96,AU,1686170727
460,nykvarn,59.8,18.3,14.94,74,2,3.11,SE,1686101470
461,sapulpa,35.9987,-96.1142,33.15,45,3,0.63,US,1686136068
462,puerto el triunfo,13.2833,-88.55,31.51,68,100,4.12,SV,1686137204
463,kyshtovka,56.555,76.6271,17.79,76,9,1.72,RU,1686175552
464,ewo,-0.8725,14.8206,24.63,84,86,1.8,CG,1686113850
465,flin flon,54.7682,-101.865,27.91,42,20,3.09,CA,1686132773
466,qarqaraly,49.4058,75.4742,18.1,46,3,3.56,KZ,1686178397
467,centenario,-38.8043,-68.14,13.86,51,0,2.06,AR,1686138325
468,norilsk,69.3535,88.2027,9.68,94,86,2.81,RU,0
469,perbaungan,3.5679,98.956,26.06,89,100,1.14,ID,1686179617
470,winnemucca,40.973,-117.7357,26.03,27,0,3.09,US,1686140360
471,mandi bahauddin,32.5834,73.4843,28.07,41,0,2.22,PK,1686182301
472,tarrafal de sao nicolau,16.5667,-24.3667,25.33,81,10,1.47,CV,1686121439
473,kannad,20.2667,75.1333,28.63,48,43,4.05,IN,1686183536
474,rio gallegos,-51.6226,-69.2181,5.03,56,0,3.6,AR,1686141413
475,chaoyang,41.5703,120.4586,16.22,34,2,1.51,CN,1686169470
476,nagua,19.3832,-69.8474,27.03,89,40,2.06,DO,1686132034
477,karacoban,39.3492,42.1124,13.38,68,8,2.21,TR,1686102312
478,gaiman,-43.2897,-65.4929,11.56,23,77,4.64,AR,1686138516
479,sejenane,37.0572,9.2381,22.53,67,100,2.15,TN,1686110608
480,enewetak,11.3474,162.3373,27.89,80,91,6.66,MH,1686163599
481,boca do acre,-8.7522,-67.3978,28.09,76,99,0.27,BR,1686134382
482,nueva palestina,15.8,-92.75,30.59,54,66,2.29,MX,1686137937
483,ivdel',60.6911,60.4206,8.27,76,81,1.98,RU,1686177119
484,acarau,-2.8856,-40.12,26.47,82,2,5.56,BR,1686127240
485,srivardhan,18.0333,73.0167,27.8,83,30,1.67,IN,1686184303
486,riberalta,-10.9833,-66.1,32.11,58,75,3.09,BO,1686134301
487,whistler,50.1164,-122.9695,28.57,10,0,1.03,CA,1686139428
488,kargasok,59.0556,80.8572,17.21,81,96,3.14,RU,1686173253
489,sufalat sama'il,23.3167,58.0167,33.82,22,0,2.37,OM,1686187275
490,alo,7.4178,6.7371,24.41,94,98,1.95,NG,1686114950
491,malango,-2.9627,119.9001,16.83,79,63,1.17,ID,1686175249
492,buta,2.7858,24.73,22.28,94,87,0.95,CD,1686111103
493,duncan,34.5023,-97.9578,30.59,49,0,2.57,US,1686136754
494,paonta sahib,30.45,77.6167,25.38,43,0,2.68,IN,1686181623
495,mitu,1.1983,-70.1733,28.32,77,35,0.12,CO,1686134043
496,abepura,-2.6333,140.5833,23.45,88,20,1.54,ID,1686170252
497,roja,57.5,22.8167,12.15,70,0,3.29,LV,1686101657
498,rocha,-34.4833,-54.3333,15.49,84,100,2.15,UY,1686134319
499,mumford,5.2618,-0.759,25.69,87,65,6.12,GH,1686116970
500,salinas,36.6777,-121.6555,21.01,72,100,4.12,US,1686142083
501,savannakhet,16.566,104.751,24.52,93,100,1.57,LA,1686176852
502,banff,51.1762,-115.5698,26.57,12,0,2.57,CA,1686137329
503,sur,22.5667,59.5289,34.77,35,93,5.54,OM,1686187005
504,isangel,-19.55,169.2667,21.88,58,0,4.33,VU,1686165143
505,al mijlad,11.0333,27.7333,29.98,43,56,1.28,SD,1686109534
506,puerto san jose,13.9256,-90.8244,30.69,60,83,3.3,GT,1686137680
507,kenai,60.5544,-151.2583,12.79,88,100,6.69,US,1686141643
508,badiyah,22.45,58.8,32.47,36,8,2.8,OM,1686187194
509,chardara,41.2547,67.9692,26.77,22,93,3.83,KZ,1686182128
510,la passe,45.5549,-0.8967,26.13,64,100,2.46,FR,1686111342
511,tralee,52.2704,-9.7026,13.68,85,43,2.86,IE,1686111575
512,hinton,53.4001,-117.5857,27.41,15,29,0.2,CA,1686137063
513,parauapebas,-6.0675,-49.9022,31.99,54,20,2.57,BR,1686129909
514,xinzhi,36.4989,111.7047,21.9,39,0,1.55,CN,1686172503
515,harstad,68.799,16.5293,5.09,100,100,5.81,NO,0
516,necochea,-38.5473,-58.7368,12.71,50,99,2.76,AR,1686136024
517,tura,25.5198,90.2201,26.28,75,87,3.26,IN,1686179268
518,umluj,25.0213,37.2685,33.47,30,0,2.65,SA,1686105643
519,khomeyn,33.6423,50.0789,17.47,61,90,1.89,IR,1686187755
520,pestretsy,55.7531,49.6545,13.08,77,30,3.5,RU,1686096020
521,duck lake,52.8168,-106.2344,25.79,38,5,1.28,CA,1686134547
522,magadan,59.5667,150.8,11.41,70,13,0.92,RU,1686156175
523,cascais,38.6979,-9.4215,22.29,94,75,7.6,PT,1686114797
524,sungai penuh,-2.0833,101.3833,18.61,97,100,0.85,ID,1686179605
525,papao,-17.75,-149.55,27.82,71,48,9.07,PF,1686155056
526,palapye,-22.546,27.1251,17.17,57,0,2.78,BW,1686113190
527,parras de la fuente,25.4167,-102.1833,30.82,21,43,4.1,MX,1686139060
528,lashio,22.9333,97.75,21.4,99,99,0.16,MM,1686177787
529,nelson bay,-32.7167,152.15,12.78,96,1,2.24,AU,1686170916
530,nova sintra,14.8667,-24.7167,22.07,80,6,2.94,CV,1686121711
531,koprubasi,40.8086,40.1238,15.8,80,3,2.41,TR,1686102513
532,egilsstadir,65.2653,-14.3948,11.95,58,0,9.77,IS,1686103899
533,severo-yeniseyskiy,60.3725,93.0408,16.34,79,100,2.02,RU,1686169514
534,rikaze,29.25,88.8833,9.42,45,0,2.11,CN,1686179089
535,kuching,1.55,110.3333,26.69,100,40,0.0,MY,1686177091
536,afaahiti,-17.75,-149.2833,26.93,74,49,8.71,PF,1686154992
537,harnai,30.1005,67.9374,30.17,38,0,1.98,PK,1686183996
538,saudarkrokur,65.7461,-19.6394,12.66,52,100,2.52,IS,1686104141
539,tongchuanshi,35.0806,109.0897,19.82,44,11,3.58,CN,1686173366
540,kailua-kona,19.6406,-155.9956,27.98,79,75,3.6,US,1686152680
541,yuyao,30.05,121.1494,23.87,98,38,1.56,CN,1686171233
542,manta,-0.95,-80.7333,29.88,89,75,7.72,EC,1686136794
543,aripuana,-9.1667,-60.6333,27.18,76,99,1.15,BR,1686132801
544,santa ana,33.7456,-117.8678,23.26,62,75,5.14,US,1686141651
545,tangalle,6.024,80.7911,26.39,84,40,5.0,LK,1686183726
